{"_id":{"$oid":"621e77827879816924cb74ec"},"name":"KINGSTON FIRE DEPARTMENT","city":"KINGSTON","state":"NH","zip":"03848","county":"ROCKINGHAM","location":{"type":"Point","coordinates":[-71.0558141,42.9334794]}}
{"_id":{"$oid":"621e77827879816924cb74ed"},"name":"BARNSTEAD FIRE RESCUE STATION 2","city":"CENTER BARNSTEAD","state":"NH","zip":"03225","county":"BELKNAP","location":{"type":"Point","coordinates":[-71.2589525,43.3390528]}}
{"_id":{"$oid":"621e77827879816924cb74ee"},"name":"SPOFFORD FIRE PRECINCT","city":"SPOFFORD","state":"NH","zip":"03462","county":"CHESHIRE","location":{"type":"Point","coordinates":[-72.4260357,42.9008099]}}
{"_id":{"$oid":"621e77827879816924cb74ef"},"name":"MERRIMACK FIRE DEPARTMENT STATION 2","city":"MERRIMACK","state":"NH","zip":"03054","county":"HILLSBOROUGH","location":{"type":"Point","coordinates":[-71.5373922,42.8110765]}}
{"_id":{"$oid":"621e77827879816924cb74f0"},"name":"TILTON NORTHFIELD FIRE AND EMERGENCY MEDICAL SERVICES - CENTER STREET","city":"TILTON","state":"NH","zip":"03276","county":"BELKNAP","location":{"type":"Point","coordinates":[-71.5898838,43.4431217]}}
{"_id":{"$oid":"621e77827879816924cb74f1"},"name":"PEASE FIRE AND EMERGENCY MEDICAL SERVICES","city":"PORTSMOUTH","state":"NH","zip":"03801","county":"ROCKINGHAM","location":{"type":"Point","coordinates":[-70.8199459,43.085741]}}
{"_id":{"$oid":"621e77827879816924cb74f2"},"name":"WILMOT VOLUNTEER FIRE AND RESCUE COMPANY INCORPORATED","city":"WILMOT","state":"NH","zip":"03287","county":"MERRIMACK","location":{"type":"Point","coordinates":[-71.8916091,43.4168871]}}
{"_id":{"$oid":"621e77827879816924cb74f3"},"name":"NEW HAMPSHIRE FIRE ACADEMY EMERGENCY RESPONSE TEAM","city":"CONCORD","state":"NH","zip":"03301","county":"MERRIMACK","location":{"type":"Point","coordinates":[-71.4778944,43.2084638]}}
{"_id":{"$oid":"621e77827879816924cb74f4"},"name":"BERLIN FIRE DEPARTMENT","city":"BERLIN","state":"NH","zip":"03570","county":"COOS","location":{"type":"Point","coordinates":[-71.1788993,44.4714096]}}
{"_id":{"$oid":"621e77827879816924cb74f5"},"name":"HAMPTON FIRE DEPARTMENT STATION 1","city":"HAMPTON","state":"NH","zip":"03842","county":"ROCKINGHAM","location":{"type":"Point","coordinates":[-70.8129872,42.9101929]}}
{"_id":{"$oid":"621e77827879816924cb74f6"},"name":"EXETER FIRE DEPARTMENT","city":"EXETER","state":"NH","zip":"03833","county":"ROCKINGHAM","location":{"type":"Point","coordinates":[-70.9464756,42.9794079]}}
{"_id":{"$oid":"621e77827879816924cb74f7"},"name":"DANVILLE FIRE AND RESCUE","city":"DANVILLE","state":"NH","zip":"03819","county":"ROCKINGHAM","location":{"type":"Point","coordinates":[-71.122689,42.9149712]}}
{"_id":{"$oid":"621e77827879816924cb74f8"},"name":"CAMPTON-THORNTON FIRE DEPARTMENT STATION 1 - HEADQUARTERS","city":"CAMPTON","state":"NH","zip":"03223","county":"GRAFTON","location":{"type":"Point","coordinates":[-71.648748,43.8502837]}}
{"_id":{"$oid":"621e77827879816924cb74f9"},"name":"CENTER OSSIPEE FIRE AND RESCUE","city":"CENTER OSSIPEE","state":"NH","zip":"03814","county":"CARROLL","location":{"type":"Point","coordinates":[-71.1520645,43.7561186]}}
{"_id":{"$oid":"621e77827879816924cb74fa"},"name":"BARRINGTON FIRE AND RESCUE","city":"BARRINGTON","state":"NH","zip":"03825","county":"STRAFFORD","location":{"type":"Point","coordinates":[-71.0167536,43.2150727]}}
{"_id":{"$oid":"621e77827879816924cb74fb"},"name":"ALLENSTOWN FIRE DEPARTMENT","city":"ALLENSTOWN","state":"NH","zip":"03275","county":"MERRIMACK","location":{"type":"Point","coordinates":[-71.4553618,43.1272895]}}
{"_id":{"$oid":"621e77827879816924cb74fc"},"name":"WEARE FIRE DEPARTMENT - SOUTH STATION","city":"WEARE","state":"NH","zip":"03281","county":"HILLSBOROUGH","location":{"type":"Point","coordinates":[-71.7112214,43.0533273]}}
{"_id":{"$oid":"621e77827879816924cb74fd"},"name":"AUBURN FIRE DEPARTMENT STATION 2","city":"AUBURN","state":"NH","zip":"03032","county":"ROCKINGHAM","location":{"type":"Point","coordinates":[-71.3435014,43.0070474]}}
{"_id":{"$oid":"621e77827879816924cb74fe"},"name":"WAKEFIELD FIRE AND RESCUE STATION 3","city":"UNION","state":"NH","zip":"03887","county":"CARROLL","location":{"type":"Point","coordinates":[-71.0268397,43.4946407]}}
{"_id":{"$oid":"621e77827879816924cb74ff"},"name":"WAKEFIELD FIRE RESCUE STATION 2","city":"EAST WAKEFIELD","state":"NH","zip":"03830","county":"CARROLL","location":{"type":"Point","coordinates":[-70.9814083,43.635344]}}
{"_id":{"$oid":"621e77827879816924cb7500"},"name":"LINCOLN FIRE DEPARTMENT","city":"LINCOLN","state":"NH","zip":"03251","county":"GRAFTON","location":{"type":"Point","coordinates":[-71.6692998,44.0452478]}}
{"_id":{"$oid":"621e77827879816924cb7501"},"name":"PLYMOUTH FIRE RESCUE DEPARTMENT","city":"PLYMOUTH","state":"NH","zip":"03264","county":"GRAFTON","location":{"type":"Point","coordinates":[-71.692948,43.7587138]}}
{"_id":{"$oid":"621e77827879816924cb7502"},"name":"WARREN FIRE DEPARTMENT","city":"WARREN","state":"NH","zip":"03279","county":"GRAFTON","location":{"type":"Point","coordinates":[-71.8916257,43.9241644]}}
{"_id":{"$oid":"621e77827879816924cb7503"},"name":"CHARLESTOWN FIRE DEPARTMENT","city":"CHARLESTOWN","state":"NH","zip":"03603","county":"SULLIVAN","location":{"type":"Point","coordinates":[-72.4251851,43.2406563]}}
{"_id":{"$oid":"621e77827879816924cb7504"},"name":"NORTH HAVERHILL FIRE DEPARTMENT","city":"NORTH HAVERHILL","state":"NH","zip":"03774","county":"GRAFTON","location":{"type":"Point","coordinates":[-72.02535,44.0918588]}}
{"_id":{"$oid":"621e77827879816924cb7505"},"name":"MONROE FIRE DEPARTMENT STATION 1 - HEADQUARTERS","city":"MONROE","state":"NH","zip":"03771","county":"GRAFTON","location":{"type":"Point","coordinates":[-72.0531643,44.2552737]}}
{"_id":{"$oid":"621e77827879816924cb7506"},"name":"RUMNEY FIRE DEPARTMENT","city":"RUMNEY","state":"NH","zip":"03266","county":"GRAFTON","location":{"type":"Point","coordinates":[-71.8193168,43.7954051]}}
{"_id":{"$oid":"621e77827879816924cb7507"},"name":"ORFORD VOLUNTEER FIRE DEPARTMENT","city":"ORFORD","state":"NH","zip":"03777","county":"GRAFTON","location":{"type":"Point","coordinates":[-72.1433946,43.899626]}}
{"_id":{"$oid":"621e77827879816924cb7508"},"name":"HANOVER FIRE DEPARTMENT STATION 1 - HEADQUARTERS","city":"HANOVER","state":"NH","zip":"03755","county":"GRAFTON","location":{"type":"Point","coordinates":[-72.2731952,43.7198977]}}
{"_id":{"$oid":"621e77827879816924cb7509"},"name":"ENFIELD FIRE DEPARTMENT STATION 1 - HEADQUARTERS","city":"ENFIELD","state":"NH","zip":"03748","county":"GRAFTON","location":{"type":"Point","coordinates":[-72.142014,43.6413222]}}
{"_id":{"$oid":"621e77827879816924cb750a"},"name":"LISBON FIRE DEPARTMENT","city":"LISBON","state":"NH","zip":"03585","county":"GRAFTON","location":{"type":"Point","coordinates":[-71.911379,44.2149565]}}
{"_id":{"$oid":"621e77827879816924cb750b"},"name":"PIERMONT FIRE DEPARTMENT","city":"PIERMONT","state":"NH","zip":"03779","county":"GRAFTON","location":{"type":"Point","coordinates":[-72.080457,43.9680656]}}
{"_id":{"$oid":"621e77827879816924cb750c"},"name":"WARNER FIRE AND RESCUE DEPARTMENT","city":"WARNER","state":"NH","zip":"03278","county":"MERRIMACK","location":{"type":"Point","coordinates":[-71.8143188,43.280202]}}
{"_id":{"$oid":"621e77827879816924cb750d"},"name":"BROOKLINE FIRE DEPARTMENT","city":"BROOKLINE","state":"NH","zip":"03033","county":"HILLSBOROUGH","location":{"type":"Point","coordinates":[-71.6634724,42.7329681]}}
{"_id":{"$oid":"621e77827879816924cb750e"},"name":"GREENVILLE FIRE DEPARTMENT","city":"GREENVILLE","state":"NH","zip":"03048","county":"HILLSBOROUGH","location":{"type":"Point","coordinates":[-71.8122376,42.7666945]}}
{"_id":{"$oid":"621e77827879816924cb750f"},"name":"HILLSBORO FIRE DEPARTMENT","city":"HILLSBORO","state":"NH","zip":"03244","county":"HILLSBOROUGH","location":{"type":"Point","coordinates":[-71.8967549,43.114949]}}
{"_id":{"$oid":"621e77827879816924cb7510"},"name":"MILFORD FIRE DEPARTMENT","city":"MILFORD","state":"NH","zip":"03055","county":"HILLSBOROUGH","location":{"type":"Point","coordinates":[-71.6473113,42.8362879]}}
{"_id":{"$oid":"621e77827879816924cb7511"},"name":"TOWN OF HOLLIS FIRE DEPARTMENT","city":"HOLLIS","state":"NH","zip":"03049","county":"HILLSBOROUGH","location":{"type":"Point","coordinates":[-71.587173,42.7440113]}}
{"_id":{"$oid":"621e77827879816924cb7512"},"name":"EFFINGHAM FIRE RESCUE DEPARTMENT","city":"EFFINGHAM","state":"NH","zip":"03882","county":"CARROLL","location":{"type":"Point","coordinates":[-71.0053983,43.7321986]}}
{"_id":{"$oid":"621e77827879816924cb7513"},"name":"WOODSVILLE FIRE AND RESCUE","city":"WOODSVILLE","state":"NH","zip":"03785","county":"GRAFTON","location":{"type":"Point","coordinates":[-72.023947,44.1415597]}}
{"_id":{"$oid":"621e77827879816924cb7514"},"name":"JACKSON FIRE DEPARTMENT","city":"JACKSON","state":"NH","zip":"03846","county":"CARROLL","location":{"type":"Point","coordinates":[-71.1897609,44.1468853]}}
{"_id":{"$oid":"621e77827879816924cb7515"},"name":"LYNDEBOROUGH FIRE DEPARTMENT","city":"LYNDEBOROUGH","state":"NH","zip":"03082","county":"HILLSBOROUGH","location":{"type":"Point","coordinates":[-71.7825846,42.8780041]}}
{"_id":{"$oid":"621e77827879816924cb7516"},"name":"WENTWORTH FIRE DEPARTMENT","city":"WENTWORTH","state":"NH","zip":"03282","county":"GRAFTON","location":{"type":"Point","coordinates":[-71.9106597,43.8694797]}}
{"_id":{"$oid":"621e77827879816924cb7517"},"name":"WOODSTOCK FIRE DEPARTMENT STATION 2 - LOWER STATION","city":"NORTH WOODSTOCK","state":"NH","zip":"03262","county":"GRAFTON","location":{"type":"Point","coordinates":[-71.6800377,43.9762034]}}
{"_id":{"$oid":"621e77827879816924cb7518"},"name":"MERIDEN FIRE DEPARTMENT","city":"MERIDEN","state":"NH","zip":"03770","county":"SULLIVAN","location":{"type":"Point","coordinates":[-72.2567859,43.5414681]}}
{"_id":{"$oid":"621e77827879816924cb7519"},"name":"WOODSTOCK FIRE DEPARTMENT STATION 1","city":"NORTH WOODSTOCK","state":"NH","zip":"03262","county":"GRAFTON","location":{"type":"Point","coordinates":[-71.6845888,44.0264417]}}
{"_id":{"$oid":"621e77827879816924cb751a"},"name":"LITTLETON FIRE DEPARTMENT","city":"LITTLETON","state":"NH","zip":"03561","county":"GRAFTON","location":{"type":"Point","coordinates":[-71.7889091,44.3118193]}}
{"_id":{"$oid":"621e77827879816924cb751b"},"name":"MADBURY FIRE DEPARTMENT","city":"MADBURY","state":"NH","zip":"03823","county":"STRAFFORD","location":{"type":"Point","coordinates":[-70.9319379,43.1673421]}}
{"_id":{"$oid":"621e77827879816924cb751c"},"name":"MERRIMACK FIRE DEPARTMENT STATION 4","city":"MERRIMACK","state":"NH","zip":"03054","county":"HILLSBOROUGH","location":{"type":"Point","coordinates":[-71.4956557,42.8663765]}}
{"_id":{"$oid":"621e77827879816924cb751d"},"name":"MILAN AND DUMMER FIRE DEPARTMENT","city":"MILAN","state":"NH","zip":"03588","county":"COOS","location":{"type":"Point","coordinates":[-71.1833793,44.5730998]}}
{"_id":{"$oid":"621e77827879816924cb751e"},"name":"GORHAM FIRE DEPARTMENT STATION 1 - HEADQUARTERS","city":"GORHAM","state":"NH","zip":"03581","county":"COOS","location":{"type":"Point","coordinates":[-71.1948637,44.3966677]}}
{"_id":{"$oid":"621e77827879816924cb751f"},"name":"AMHERST FIRE DEPARTMENT STATION 2","city":"AMHERST","state":"NH","zip":"03031","county":"HILLSBOROUGH","location":{"type":"Point","coordinates":[-71.582944,42.8206291]}}
{"_id":{"$oid":"621e77827879816924cb7520"},"name":"GORHAM FIRE DEPARTMENT STATION 2","city":"GORHAM","state":"NH","zip":"03581","county":"COOS","location":{"type":"Point","coordinates":[-71.1888818,44.4395368]}}
{"_id":{"$oid":"621e77827879816924cb7521"},"name":"WEARE FIRE DEPARTMENT - CENTRAL STATION - HEADQUARTERS","city":"WEARE","state":"NH","zip":"03281","county":"HILLSBOROUGH","location":{"type":"Point","coordinates":[-71.7385447,43.1034923]}}
{"_id":{"$oid":"621e77827879816924cb7522"},"name":"DURHAM FIRE DEPARTMENT","city":"DURHAM","state":"NH","zip":"03824","county":"STRAFFORD","location":{"type":"Point","coordinates":[-70.9361627,43.1358249]}}
{"_id":{"$oid":"621e77827879816924cb7523"},"name":"SHELBURNE FIRE DEPARTMENT","city":"SHELBURNE","state":"NH","zip":"03581","county":"COOS","location":{"type":"Point","coordinates":[-71.0786115,44.4025691]}}
{"_id":{"$oid":"621e77827879816924cb7524"},"name":"RYE FIRE AND RESCUE DEPARTMENT","city":"RYE","state":"NH","zip":"03870","county":"ROCKINGHAM","location":{"type":"Point","coordinates":[-70.7722518,43.0128112]}}
{"_id":{"$oid":"621e77827879816924cb7525"},"name":"CITY OF PORTSMOUTH FIRE DEPARTMENT STATION 2","city":"PORTSMOUTH","state":"NH","zip":"03801","county":"ROCKINGHAM","location":{"type":"Point","coordinates":[-70.7891738,43.0296514]}}
{"_id":{"$oid":"621e77827879816924cb7526"},"name":"RAYMOND FIRE DEPARTMENT","city":"RAYMOND","state":"NH","zip":"03077","county":"ROCKINGHAM","location":{"type":"Point","coordinates":[-71.1963684,43.0294645]}}
{"_id":{"$oid":"621e77827879816924cb7527"},"name":"NOTTINGHAM FIRE DEPARTMENT","city":"NOTTINGHAM","state":"NH","zip":"03290","county":"ROCKINGHAM","location":{"type":"Point","coordinates":[-71.1125811,43.1435428]}}
{"_id":{"$oid":"621e77827879816924cb7528"},"name":"TOWN OF SALEM FIRE DEPARTMENT STATION 2 - NORTH SALEM","city":"SALEM","state":"NH","zip":"03079","county":"ROCKINGHAM","location":{"type":"Point","coordinates":[-71.2086861,42.8258523]}}
{"_id":{"$oid":"621e77827879816924cb7529"},"name":"LONDONDERRY FIRE RESCUE DEPARTMENT STATION 2","city":"LONDONDERRY","state":"NH","zip":"03053","county":"ROCKINGHAM","location":{"type":"Point","coordinates":[-71.3681694,42.8428997]}}
{"_id":{"$oid":"621e77827879816924cb752a"},"name":"CENTER HARBOR FIRE AND RESCUE","city":"CENTER HARBOR","state":"NH","zip":"03226","county":"BELKNAP","location":{"type":"Point","coordinates":[-71.4633535,43.708306]}}
{"_id":{"$oid":"621e77827879816924cb752b"},"name":"WAKEFIELD FIRE AND RESCUE STATION 1","city":"SANBORNVILLE","state":"NH","zip":"03872","county":"CARROLL","location":{"type":"Point","coordinates":[-71.0253179,43.5518246]}}
{"_id":{"$oid":"621e77827879816924cb752c"},"name":"HAMPTON FALLS FIRE DEPARTMENT","city":"HAMPTON FALLS","state":"NH","zip":"03844","county":"ROCKINGHAM","location":{"type":"Point","coordinates":[-70.8746649,42.9212329]}}
{"_id":{"$oid":"621e77827879816924cb752d"},"name":"BARTLETT FIRE DEPARTMENT STATION 1","city":"BARTLETT","state":"NH","zip":"03812","county":"CARROLL","location":{"type":"Point","coordinates":[-71.281954,44.0764129]}}
{"_id":{"$oid":"621e77827879816924cb752e"},"name":"GILMANTON FIRE DEPARTMENT STATION 1","city":"GILMANTON IRON WORKS","state":"NH","zip":"03837","county":"BELKNAP","location":{"type":"Point","coordinates":[-71.2949246,43.4176814]}}
{"_id":{"$oid":"621e77827879816924cb752f"},"name":"LONDONDERRY FIRE RESCUE DEPARTMENT STATION 1","city":"LONDONDERRY","state":"NH","zip":"03053","county":"ROCKINGHAM","location":{"type":"Point","coordinates":[-71.4050922,42.9192041]}}
{"_id":{"$oid":"621e77827879816924cb7530"},"name":"NEW CASTLE FIRE DEPARTMENT","city":"NEW CASTLE","state":"NH","zip":"03854","county":"ROCKINGHAM","location":{"type":"Point","coordinates":[-70.7159168,43.0708292]}}
{"_id":{"$oid":"621e77827879816924cb7531"},"name":"NEWINGTON FIRE AND RESCUE","city":"NEWINGTON","state":"NH","zip":"03801","county":"ROCKINGHAM","location":{"type":"Point","coordinates":[-70.8299043,43.1061706]}}
{"_id":{"$oid":"621e77827879816924cb7532"},"name":"NEWTON FIRE DEPARTMENT","city":"NEWTON","state":"NH","zip":"03858","county":"ROCKINGHAM","location":{"type":"Point","coordinates":[-71.0389078,42.8654143]}}
{"_id":{"$oid":"621e77827879816924cb7533"},"name":"CITY OF PORTSMOUTH FIRE DEPARTMENT STATION 1","city":"PORTSMOUTH","state":"NH","zip":"03801","county":"ROCKINGHAM","location":{"type":"Point","coordinates":[-70.7576889,43.0748307]}}
{"_id":{"$oid":"621e77827879816924cb7534"},"name":"TOWN OF SALEM FIRE DEPARTMENT STATION 1 - HEADQUARTERS","city":"SALEM","state":"NH","zip":"03079","county":"ROCKINGHAM","location":{"type":"Point","coordinates":[-71.2250403,42.7818609]}}
{"_id":{"$oid":"621e77827879816924cb7535"},"name":"SEABROOK FIRE DEPARTMENT","city":"SEABROOK","state":"NH","zip":"03874","county":"ROCKINGHAM","location":{"type":"Point","coordinates":[-70.8598492,42.8835555]}}
{"_id":{"$oid":"621e77827879816924cb7536"},"name":"MEREDITH FIRE DEPARTMENT - CENTER STATION","city":"MEREDITH","state":"NH","zip":"03253","county":"BELKNAP","location":{"type":"Point","coordinates":[-71.5383972,43.6162075]}}
{"_id":{"$oid":"621e77827879816924cb7537"},"name":"SOUTH HAMPTON FIRE/RESCUE","city":"SOUTH HAMPTON","state":"NH","zip":"03827","county":"ROCKINGHAM","location":{"type":"Point","coordinates":[-70.9777513,42.8882138]}}
{"_id":{"$oid":"621e77827879816924cb7538"},"name":"STRATHAM VOLUNTEER FIRE DEPARTMENT","city":"STRATHAM","state":"NH","zip":"03885","county":"ROCKINGHAM","location":{"type":"Point","coordinates":[-70.9109112,43.0250842]}}
{"_id":{"$oid":"621e77827879816924cb7539"},"name":"CITY OF DOVER FIRE AND RESCUE - SOUTH END STATION","city":"DOVER","state":"NH","zip":"03820","county":"STRAFFORD","location":{"type":"Point","coordinates":[-70.8805719,43.1781534]}}
{"_id":{"$oid":"621e77827879816924cb753a"},"name":"FARMINGTON FIRE AND RESCUE","city":"FARMINGTON","state":"NH","zip":"03835","county":"STRAFFORD","location":{"type":"Point","coordinates":[-71.0643174,43.3887006]}}
{"_id":{"$oid":"621e77827879816924cb753b"},"name":"NEWMARKET FIRE AND RESCUE","city":"NEWMARKET","state":"NH","zip":"03857","county":"ROCKINGHAM","location":{"type":"Point","coordinates":[-70.9335496,43.0739871]}}
{"_id":{"$oid":"621e77827879816924cb753c"},"name":"LONDONDERRY FIRE RESCUE DEPARTMENT - CENTRAL STATION","city":"LONDONDERRY","state":"NH","zip":"03053","county":"ROCKINGHAM","location":{"type":"Point","coordinates":[-71.3757412,42.8693602]}}
{"_id":{"$oid":"621e77827879816924cb753d"},"name":"NORTH HAMPTON FIRE AND RESCUE","city":"NORTH HAMPTON","state":"NH","zip":"03862","county":"ROCKINGHAM","location":{"type":"Point","coordinates":[-70.8299606,42.9733895]}}
{"_id":{"$oid":"621e77827879816924cb753e"},"name":"CITY OF DOVER FIRE AND RESCUE - CENTRAL STATION","city":"DOVER","state":"NH","zip":"03820","county":"STRAFFORD","location":{"type":"Point","coordinates":[-70.8735422,43.198839]}}
{"_id":{"$oid":"621e77827879816924cb753f"},"name":"PLAISTOW FIRE DEPARTMENT","city":"PLAISTOW","state":"NH","zip":"03865","county":"ROCKINGHAM","location":{"type":"Point","coordinates":[-71.0901973,42.8395244]}}
{"_id":{"$oid":"621e77827879816924cb7540"},"name":"TOWN OF SALEM FIRE DEPARTMENT STATION 3 - SOUTH SALEM","city":"SALEM","state":"NH","zip":"03079","county":"ROCKINGHAM","location":{"type":"Point","coordinates":[-71.1977683,42.7605193]}}
{"_id":{"$oid":"621e77827879816924cb7541"},"name":"SANDOWN FIRE AND RESCUE","city":"SANDOWN","state":"NH","zip":"03873","county":"ROCKINGHAM","location":{"type":"Point","coordinates":[-71.1876571,42.9260497]}}
{"_id":{"$oid":"621e77827879816924cb7542"},"name":"LEE FIRE AND RESCUE DEPARTMENT","city":"LEE","state":"NH","zip":"03824","county":"STRAFFORD","location":{"type":"Point","coordinates":[-71.0156,43.1241115]}}
{"_id":{"$oid":"621e77827879816924cb7543"},"name":"NORTHWOOD FIRE RESCUE - NARROWS STATION","city":"NORTHWOOD","state":"NH","zip":"03261","county":"ROCKINGHAM","location":{"type":"Point","coordinates":[-71.2445407,43.2268383]}}
{"_id":{"$oid":"621e77827879816924cb7544"},"name":"HEBRON FIRE DEPARTMENT","city":"HEBRON","state":"NH","zip":"03241","county":"GRAFTON","location":{"type":"Point","coordinates":[-71.810055,43.6945412]}}
{"_id":{"$oid":"621e77827879816924cb7545"},"name":"CONCORD FIRE DEPARTMENT STATION 5 - MANOR STATION","city":"PENACOOK","state":"NH","zip":"03303","county":"MERRIMACK","location":{"type":"Point","coordinates":[-71.5882392,43.2691722]}}
{"_id":{"$oid":"621e77827879816924cb7546"},"name":"NORTHWOOD FIRE RESCUE - RIDGE STATION","city":"NORTHWOOD","state":"NH","zip":"03261","county":"ROCKINGHAM","location":{"type":"Point","coordinates":[-71.1758472,43.2079024]}}
{"_id":{"$oid":"621e77827879816924cb7547"},"name":"CITY OF PORTSMOUTH FIRE DEPARTMENT STATION 3","city":"PORTSMOUTH","state":"NH","zip":"03801","county":"ROCKINGHAM","location":{"type":"Point","coordinates":[-70.8017146,43.0801612]}}
{"_id":{"$oid":"621e77827879816924cb7548"},"name":"SALISBURY VOLUNTEER FIRE AND RESCUE","city":"SALISBURY","state":"NH","zip":"03268","county":"MERRIMACK","location":{"type":"Point","coordinates":[-71.7158864,43.3780867]}}
{"_id":{"$oid":"621e77827879816924cb7549"},"name":"WATERVILLE VALLEY FIRE DEPARTMENT","city":"WATERVILLE VALLEY","state":"NH","zip":"03215","county":"GRAFTON","location":{"type":"Point","coordinates":[-71.510072,43.9454383]}}
{"_id":{"$oid":"621e77827879816924cb754a"},"name":"PELHAM FIRE DEPARTMENT","city":"PELHAM","state":"NH","zip":"03076","county":"HILLSBOROUGH","location":{"type":"Point","coordinates":[-71.3219848,42.7304381]}}
{"_id":{"$oid":"621e77827879816924cb754b"},"name":"GILSUM VOLUNTEER FIRE DEPARTMENT AND RESCUE SQUAD","city":"GILSUM","state":"NH","zip":"03448","county":"CHESHIRE","location":{"type":"Point","coordinates":[-72.2626778,43.0475074]}}
{"_id":{"$oid":"621e77827879816924cb754c"},"name":"SURRY VOLUNTEER FIRE DEPARTMENT","city":"SURRY","state":"NH","zip":"03431","county":"CHESHIRE","location":{"type":"Point","coordinates":[-72.3236673,43.0160626]}}
{"_id":{"$oid":"621e77827879816924cb754d"},"name":"MEADOWOOD COUNTY AREA FIRE DEPARTMENT","city":"FITZWILLIAM","state":"NH","zip":"03447","county":"CHESHIRE","location":{"type":"Point","coordinates":[-72.1680749,42.798109]}}
{"_id":{"$oid":"621e77827879816924cb754e"},"name":"NEW LONDON FIRE DEPARTMENT","city":"NEW LONDON","state":"NH","zip":"03257","county":"MERRIMACK","location":{"type":"Point","coordinates":[-71.9866348,43.4157502]}}
{"_id":{"$oid":"621e77827879816924cb754f"},"name":"NEWBURY FIRE AND RESCUE DEPARTMENT","city":"NEWBURY","state":"NH","zip":"03255","county":"MERRIMACK","location":{"type":"Point","coordinates":[-72.0367466,43.3210799]}}
{"_id":{"$oid":"621e77827879816924cb7550"},"name":"PEMBROKE FIRE DEPARTMENT","city":"PEMBROKE","state":"NH","zip":"03275","county":"MERRIMACK","location":{"type":"Point","coordinates":[-71.4538852,43.1436189]}}
{"_id":{"$oid":"621e77827879816924cb7551"},"name":"MOULTONBOROUGH FIRE RESCUE - NECK STATION 2","city":"MOULTONBOROUGH","state":"NH","zip":"03254","county":"CARROLL","location":{"type":"Point","coordinates":[-71.3829398,43.6936726]}}
{"_id":{"$oid":"621e77827879816924cb7552"},"name":"SANDWICH FIRE RESCUE DEPARTMENT - WHITE FACE STATION","city":"NORTH SANDWICH","state":"NH","zip":"03259","county":"CARROLL","location":{"type":"Point","coordinates":[-71.3962169,43.865268]}}
{"_id":{"$oid":"621e77827879816924cb7553"},"name":"TAMWORTH FIRE DEPARTMENT - CENTRAL STATION","city":"TAMWORTH","state":"NH","zip":"03886","county":"CARROLL","location":{"type":"Point","coordinates":[-71.2640683,43.8632896]}}
{"_id":{"$oid":"621e77827879816924cb7554"},"name":"WEST OSSIPEE FIRE AND RESCUE DEPARTMENT","city":"WEST OSSIPEE","state":"NH","zip":"03890","county":"CARROLL","location":{"type":"Point","coordinates":[-71.2017467,43.8195319]}}
{"_id":{"$oid":"621e77827879816924cb7555"},"name":"TAMWORTH FIRE DEPARTMENT","city":"SOUTH TAMWORTH","state":"NH","zip":"03883","county":"CARROLL","location":{"type":"Point","coordinates":[-71.2938012,43.8283205]}}
{"_id":{"$oid":"621e77827879816924cb7556"},"name":"ALSTEAD FIRE DEPARTMENT - VILLAGE STATION","city":"ALSTEAD","state":"NH","zip":"03602","county":"CHESHIRE","location":{"type":"Point","coordinates":[-72.3613557,43.1475949]}}
{"_id":{"$oid":"621e77827879816924cb7557"},"name":"JAFFREY FIRE DEPARTMENT","city":"JAFFREY","state":"NH","zip":"03452","county":"CHESHIRE","location":{"type":"Point","coordinates":[-72.010789,42.8104817]}}
{"_id":{"$oid":"621e77827879816924cb7558"},"name":"CITY OF KEENE FIRE DEPARTMENT - CENTRAL STATION","city":"KEENE","state":"NH","zip":"03431","county":"CHESHIRE","location":{"type":"Point","coordinates":[-72.2789338,42.9349986]}}
{"_id":{"$oid":"621e77827879816924cb7559"},"name":"NELSON FIRE AND RESCUE STATION 1","city":"NELSON","state":"NH","zip":"03457","county":"CHESHIRE","location":{"type":"Point","coordinates":[-72.1236346,42.9903137]}}
{"_id":{"$oid":"621e77827879816924cb755a"},"name":"NORTH WALPOLE FIRE DEPARTMENT","city":"NORTH WALPOLE","state":"NH","zip":"03609","county":"CHESHIRE","location":{"type":"Point","coordinates":[-72.4508042,43.144116]}}
{"_id":{"$oid":"621e77827879816924cb755b"},"name":"PITTSFIELD FIRE DEPARTMENT","city":"PITTSFIELD","state":"NH","zip":"03263","county":"MERRIMACK","location":{"type":"Point","coordinates":[-71.3220323,43.3047585]}}
{"_id":{"$oid":"621e77827879816924cb755c"},"name":"HILL FIRE DEPARTMENT","city":"HILL","state":"NH","zip":"03243","county":"MERRIMACK","location":{"type":"Point","coordinates":[-71.7018085,43.5197881]}}
{"_id":{"$oid":"621e77827879816924cb755d"},"name":"EPPING FIRE DEPARTMENT - WEST STATION","city":"EPPING","state":"NH","zip":"03042","county":"ROCKINGHAM","location":{"type":"Point","coordinates":[-71.128117,43.0381218]}}
{"_id":{"$oid":"621e77827879816924cb755e"},"name":"ANDOVER FIRE DEPARTMENT","city":"ANDOVER","state":"NH","zip":"03216","county":"MERRIMACK","location":{"type":"Point","coordinates":[-71.8200424,43.4362913]}}
{"_id":{"$oid":"621e77827879816924cb755f"},"name":"BOSCAWEN FIRE DEPARTMENT","city":"BOSCAWEN","state":"NH","zip":"03303","county":"MERRIMACK","location":{"type":"Point","coordinates":[-71.6296237,43.3216178]}}
{"_id":{"$oid":"621e77827879816924cb7560"},"name":"BOW FIRE DEPARTMENT","city":"BOW","state":"NH","zip":"03304","county":"MERRIMACK","location":{"type":"Point","coordinates":[-71.5358381,43.1552881]}}
{"_id":{"$oid":"621e77827879816924cb7561"},"name":"CHICHESTER FIRE AND RESCUE","city":"CHICHESTER","state":"NH","zip":"03258","county":"MERRIMACK","location":{"type":"Point","coordinates":[-71.401682,43.2462436]}}
{"_id":{"$oid":"621e77827879816924cb7562"},"name":"HOOKSETT FIRE-RESCUE DEPARTMENT STATION 2 - CENTRAL STATION","city":"HOOKSETT","state":"NH","zip":"03106","county":"MERRIMACK","location":{"type":"Point","coordinates":[-71.4467034,43.0566519]}}
{"_id":{"$oid":"621e77827879816924cb7563"},"name":"HOOKSETT FIRE-RESCUE DEPARTMENT STATION 1","city":"HOOKSETT VILLAGE","state":"NH","zip":"03106","county":"MERRIMACK","location":{"type":"Point","coordinates":[-71.4643333,43.0970837]}}
{"_id":{"$oid":"621e77827879816924cb7564"},"name":"LOUDON FIRE DEPARTMENT STATION 1 - HEADQUARTERS","city":"LOUDON","state":"NH","zip":"03307","county":"MERRIMACK","location":{"type":"Point","coordinates":[-71.4658103,43.2859655]}}
{"_id":{"$oid":"621e77827879816924cb7565"},"name":"HINSDALE FIRE DEPARTMENT","city":"HINSDALE","state":"NH","zip":"03451","county":"CHESHIRE","location":{"type":"Point","coordinates":[-72.4800111,42.7859214]}}
{"_id":{"$oid":"621e77827879816924cb7566"},"name":"WILTON FIRE DEPARTMENT","city":"WILTON","state":"NH","zip":"03086","county":"HILLSBOROUGH","location":{"type":"Point","coordinates":[-71.73612,42.842453]}}
{"_id":{"$oid":"621e77827879816924cb7567"},"name":"MARLBOROUGH FIRE DEPARTMENT","city":"MARLBOROUGH","state":"NH","zip":"03455","county":"CHESHIRE","location":{"type":"Point","coordinates":[-72.2100771,42.9051534]}}
{"_id":{"$oid":"621e77827879816924cb7568"},"name":"CHESTERFIELD FIRE AND RESCUE - WEST STATION","city":"WEST CHESTERFIELD","state":"NH","zip":"03466","county":"CHESHIRE","location":{"type":"Point","coordinates":[-72.5184133,42.9052433]}}
{"_id":{"$oid":"621e77827879816924cb7569"},"name":"DUBLIN FIRE DEPARTMENT","city":"DUBLIN","state":"NH","zip":"03444","county":"CHESHIRE","location":{"type":"Point","coordinates":[-72.061473,42.9061797]}}
{"_id":{"$oid":"621e77827879816924cb756a"},"name":"CHESTERFIELD FIRE AND RESCUE - CENTER STATION","city":"CHESTERFIELD","state":"NH","zip":"03443","county":"CHESHIRE","location":{"type":"Point","coordinates":[-72.4706978,42.8859892]}}
{"_id":{"$oid":"621e77827879816924cb756b"},"name":"ENFIELD FIRE DEPARTMENT STATION 2 - CENTER STATION","city":"ENFIELD","state":"NH","zip":"03748","county":"GRAFTON","location":{"type":"Point","coordinates":[-72.1092598,43.5868858]}}
{"_id":{"$oid":"621e77837879816924cb756c"},"name":"ALSTEAD FIRE DEPARTMENT - EAST STATION","city":"ALSTEAD","state":"NH","zip":"03602","county":"CHESHIRE","location":{"type":"Point","coordinates":[-72.27959,43.1276]}}
{"_id":{"$oid":"621e77837879816924cb756d"},"name":"MONROE FIRE DEPARTMENT STATION 2","city":"MONROE","state":"NH","zip":"03771","county":"GRAFTON","location":{"type":"Point","coordinates":[-71.9967749,44.3082119]}}
{"_id":{"$oid":"621e77837879816924cb756e"},"name":"ROCHESTER FIRE DEPARTMENT STATION 2","city":"GONIC","state":"NH","zip":"03839","county":"STRAFFORD","location":{"type":"Point","coordinates":[-70.9805389,43.2775212]}}
{"_id":{"$oid":"621e77837879816924cb756f"},"name":"CANDIA FIRE RESCUE DEPARTMENT","city":"CANDIA","state":"NH","zip":"03034","county":"ROCKINGHAM","location":{"type":"Point","coordinates":[-71.287626,43.0622577]}}
{"_id":{"$oid":"621e77837879816924cb7570"},"name":"EPPING FIRE DEPARTMENT - CENTRAL STATION","city":"EPPING","state":"NH","zip":"03042","county":"ROCKINGHAM","location":{"type":"Point","coordinates":[-71.0765403,43.0397289]}}
{"_id":{"$oid":"621e77837879816924cb7571"},"name":"HAMPSTEAD FIRE RESCUE - CENTRAL STATION","city":"HAMPSTEAD","state":"NH","zip":"03841","county":"ROCKINGHAM","location":{"type":"Point","coordinates":[-71.175512,42.8747017]}}
{"_id":{"$oid":"621e77837879816924cb7572"},"name":"NEW ENGLAND DRAGWAY INCORPORATED","city":"EPPING","state":"NH","zip":"03042","county":"ROCKINGHAM","location":{"type":"Point","coordinates":[-71.0303328,43.0183224]}}
{"_id":{"$oid":"621e77837879816924cb7573"},"name":"LOUDON FIRE DEPARTMENT STATION 2","city":"LOUDON","state":"NH","zip":"03307","county":"MERRIMACK","location":{"type":"Point","coordinates":[-71.4621012,43.3421239]}}
{"_id":{"$oid":"621e77837879816924cb7574"},"name":"HOPKINTON FIRE DEPARTMENT - CONTOOCOOK STATION","city":"CONTOOCOOK","state":"NH","zip":"03229","county":"MERRIMACK","location":{"type":"Point","coordinates":[-71.7151057,43.223244]}}
{"_id":{"$oid":"621e77837879816924cb7575"},"name":"EPSOM FIRE DEPARTMENT","city":"EPSOM","state":"NH","zip":"03234","county":"MERRIMACK","location":{"type":"Point","coordinates":[-71.343337,43.2250236]}}
{"_id":{"$oid":"621e77837879816924cb7576"},"name":"ATKINSON FIRE DEPARTMENT","city":"ATKINSON","state":"NH","zip":"03811","county":"ROCKINGHAM","location":{"type":"Point","coordinates":[-71.1520687,42.8392759]}}
{"_id":{"$oid":"621e77837879816924cb7577"},"name":"AUBURN FIRE DEPARTMENT STATION 1","city":"AUBURN","state":"NH","zip":"03032","county":"ROCKINGHAM","location":{"type":"Point","coordinates":[-71.3363491,42.9727879]}}
{"_id":{"$oid":"621e77837879816924cb7578"},"name":"BRENTWOOD FIRE DEPARTMENT","city":"BRENTWOOD","state":"NH","zip":"03833","county":"ROCKINGHAM","location":{"type":"Point","coordinates":[-71.071647,42.9772313]}}
{"_id":{"$oid":"621e77837879816924cb7579"},"name":"DANBURY VOLUNTEER FIRE DEPARTMENT","city":"DANBURY","state":"NH","zip":"03230","county":"MERRIMACK","location":{"type":"Point","coordinates":[-71.8617539,43.5264277]}}
{"_id":{"$oid":"621e77837879816924cb757a"},"name":"BENNINGTON FIRE AND RESCUE","city":"BENNINGTON","state":"NH","zip":"03442","county":"HILLSBOROUGH","location":{"type":"Point","coordinates":[-71.9247128,43.0017319]}}
{"_id":{"$oid":"621e77837879816924cb757b"},"name":"EAST ALTON FIRE AND RESCUE DEPARTMENT","city":"ALTON","state":"NH","zip":"03809","county":"BELKNAP","location":{"type":"Point","coordinates":[-71.206888,43.5214691]}}
{"_id":{"$oid":"621e77837879816924cb757c"},"name":"TAMWORTH FIRE DEPARTMENT - WONALANCET STATION","city":"WONALANCET","state":"NH","zip":"03897","county":"CARROLL","location":{"type":"Point","coordinates":[-71.3256322,43.9091098]}}
{"_id":{"$oid":"621e77837879816924cb757d"},"name":"FRANCESTOWN VOLUNTEER FIRE DEPARTMENT","city":"FRANCESTOWN","state":"NH","zip":"03043","county":"HILLSBOROUGH","location":{"type":"Point","coordinates":[-71.8056111,42.9823117]}}
{"_id":{"$oid":"621e77837879816924cb757e"},"name":"BRADFORD FIRE DEPARTMENT","city":"BRADFORD","state":"NH","zip":"03221","county":"MERRIMACK","location":{"type":"Point","coordinates":[-71.9592516,43.2689318]}}
{"_id":{"$oid":"621e77837879816924cb757f"},"name":"DUNBARTON FIRE DEPARTMENT","city":"DUNBARTON","state":"NH","zip":"03046","county":"MERRIMACK","location":{"type":"Point","coordinates":[-71.6140469,43.1020191]}}
{"_id":{"$oid":"621e77837879816924cb7580"},"name":"EAST ANDOVER FIRE DEPARTMENT","city":"ANDOVER","state":"NH","zip":"03216","county":"MERRIMACK","location":{"type":"Point","coordinates":[-71.7484318,43.4589039]}}
{"_id":{"$oid":"621e77837879816924cb7581"},"name":"HENNIKER FIRE AND RESCUE","city":"HENNIKER","state":"NH","zip":"03242","county":"MERRIMACK","location":{"type":"Point","coordinates":[-71.8252297,43.1853597]}}
{"_id":{"$oid":"621e77837879816924cb7582"},"name":"HAMPTON FIRE DEPARTMENT STATION 2","city":"HAMPTON","state":"NH","zip":"03842","county":"ROCKINGHAM","location":{"type":"Point","coordinates":[-70.8323471,42.9377502]}}
{"_id":{"$oid":"621e77837879816924cb7583"},"name":"HOPKINTON FIRE DEPARTMENT - HOPKINTON STATION","city":"HOPKINTON","state":"NH","zip":"03229","county":"MERRIMACK","location":{"type":"Point","coordinates":[-71.6645354,43.189516]}}
{"_id":{"$oid":"621e77837879816924cb7584"},"name":"SUTTON VOLUNTEER FIRE DEPARTMENT","city":"NORTH SUTTON","state":"NH","zip":"03260","county":"MERRIMACK","location":{"type":"Point","coordinates":[-71.9370328,43.3604815]}}
{"_id":{"$oid":"621e77837879816924cb7585"},"name":"WEARE FIRE DEPARTMENT - EAST STATION","city":"WEARE","state":"NH","zip":"03281","county":"HILLSBOROUGH","location":{"type":"Point","coordinates":[-71.6886866,43.1369364]}}
{"_id":{"$oid":"621e77837879816924cb7586"},"name":"ACWORTH VOLUNTEER FIRE AND RESCUE COMPANY","city":"ACWORTH","state":"NH","zip":"03601","county":"SULLIVAN","location":{"type":"Point","coordinates":[-72.2938976,43.2098509]}}
{"_id":{"$oid":"621e77837879816924cb7587"},"name":"ALTON FIRE AND RESCUE DEPARTMENT","city":"ALTON","state":"NH","zip":"03809","county":"BELKNAP","location":{"type":"Point","coordinates":[-71.2265274,43.4544942]}}
{"_id":{"$oid":"621e77837879816924cb7588"},"name":"MANCHESTER FIRE DEPARTMENT STATION 1 - HEADQUARTERS","city":"MANCHESTER","state":"NH","zip":"03101","county":"HILLSBOROUGH","location":{"type":"Point","coordinates":[-71.4597495,42.9897786]}}
{"_id":{"$oid":"621e77837879816924cb7589"},"name":"AMHERST FIRE DEPARTMENT STATION 1 - HEADQUARTERS","city":"AMHERST","state":"NH","zip":"03031","county":"HILLSBOROUGH","location":{"type":"Point","coordinates":[-71.615012,42.8656232]}}
{"_id":{"$oid":"621e77837879816924cb758a"},"name":"BEDFORD FIRE DEPARTMENT","city":"BEDFORD","state":"NH","zip":"03110","county":"HILLSBOROUGH","location":{"type":"Point","coordinates":[-71.5040623,42.9574877]}}
{"_id":{"$oid":"621e77837879816924cb758b"},"name":"CANTERBURY VOLUNTEER FIRE DEPARTMENT","city":"CANTERBURY","state":"NH","zip":"03224","county":"MERRIMACK","location":{"type":"Point","coordinates":[-71.5594417,43.3361018]}}
{"_id":{"$oid":"621e77837879816924cb758c"},"name":"MOULTONBOROUGH FIRE RESCUE - CENTRAL STATION","city":"MOULTONBOROUGH","state":"NH","zip":"03254","county":"CARROLL","location":{"type":"Point","coordinates":[-71.3932315,43.7562658]}}
{"_id":{"$oid":"621e77837879816924cb758d"},"name":"WEBSTER FIRE DEPARTMENT","city":"WEBSTER","state":"NH","zip":"03303","county":"MERRIMACK","location":{"type":"Point","coordinates":[-71.7175859,43.3064305]}}
{"_id":{"$oid":"621e77837879816924cb758e"},"name":"MANCHESTER-BOSTON REGIONAL AIRPORT FIRE DEPARTMENT","city":"MANCHESTER","state":"NH","zip":"03103","county":"ROCKINGHAM","location":{"type":"Point","coordinates":[-71.4304924,42.9328076]}}
{"_id":{"$oid":"621e77837879816924cb758f"},"name":"FLORIDA POWER LIGHT AND ENERGY FIRE BRIGADE - SEABROOK STATION","city":"SEABROOK","state":"NH","zip":"03874","county":"ROCKINGHAM","location":{"type":"Point","coordinates":[-70.8725372,42.8931591]}}
{"_id":{"$oid":"621e77837879816924cb7590"},"name":"GREENFIELD VOLUNTEER FIRE DEPARTMENT","city":"GREENFIELD","state":"NH","zip":"03047","county":"HILLSBOROUGH","location":{"type":"Point","coordinates":[-71.8753399,42.9504486]}}
{"_id":{"$oid":"621e77837879816924cb7591"},"name":"CITY OF FRANKLIN FIRE DEPARTMENT","city":"FRANKLIN","state":"NH","zip":"03235","county":"MERRIMACK","location":{"type":"Point","coordinates":[-71.6517327,43.4441534]}}
{"_id":{"$oid":"621e77837879816924cb7592"},"name":"NEWBURY FIRE AND RESCUE DEPARTMENT - BLODGETT LANDING SUBSTATION","city":"NEWBURY","state":"NH","zip":"03255","county":"MERRIMACK","location":{"type":"Point","coordinates":[-72.0412229,43.3730487]}}
{"_id":{"$oid":"621e77837879816924cb7593"},"name":"MANCHESTER FIRE DEPARTMENT STATION 8","city":"MANCHESTER","state":"NH","zip":"03109","county":"HILLSBOROUGH","location":{"type":"Point","coordinates":[-71.4101441,42.9729792]}}
{"_id":{"$oid":"621e77837879816924cb7594"},"name":"MANCHESTER FIRE DEPARTMENT STATION 5","city":"MANCHESTER","state":"NH","zip":"03104","county":"HILLSBOROUGH","location":{"type":"Point","coordinates":[-71.4633765,43.0069148]}}
{"_id":{"$oid":"621e77837879816924cb7595"},"name":"MANCHESTER FIRE DEPARTMENT STATION 3","city":"MANCHESTER","state":"NH","zip":"03103","county":"HILLSBOROUGH","location":{"type":"Point","coordinates":[-71.4332633,42.945907]}}
{"_id":{"$oid":"621e77837879816924cb7596"},"name":"MANCHESTER FIRE DEPARTMENT STATION 7","city":"MANCHESTER","state":"NH","zip":"03103","county":"HILLSBOROUGH","location":{"type":"Point","coordinates":[-71.4458058,42.9762351]}}
{"_id":{"$oid":"621e77837879816924cb7597"},"name":"MANCHESTER FIRE DEPARTMENT STATION 9","city":"MANCHESTER","state":"NH","zip":"03103","county":"HILLSBOROUGH","location":{"type":"Point","coordinates":[-71.4606728,42.9591498]}}
{"_id":{"$oid":"621e77837879816924cb7598"},"name":"MANCHESTER FIRE DEPARTMENT STATION 6","city":"MANCHESTER","state":"NH","zip":"03102","county":"HILLSBOROUGH","location":{"type":"Point","coordinates":[-71.4763237,42.9930887]}}
{"_id":{"$oid":"621e77837879816924cb7599"},"name":"MANCHESTER FIRE DEPARTMENT STATION 4","city":"MANCHESTER","state":"NH","zip":"03102","county":"HILLSBOROUGH","location":{"type":"Point","coordinates":[-71.4842643,43.038367]}}
{"_id":{"$oid":"621e77837879816924cb759a"},"name":"MANCHESTER FIRE DEPARTMENT STATION 2","city":"MANCHESTER","state":"NH","zip":"03102","county":"HILLSBOROUGH","location":{"type":"Point","coordinates":[-71.480709,42.9744324]}}
{"_id":{"$oid":"621e77837879816924cb759b"},"name":"ANTRIM FIRE DEPARTMENT STATION 2","city":"ANTRIM","state":"NH","zip":"03440","county":"HILLSBOROUGH","location":{"type":"Point","coordinates":[-71.9694439,43.0816756]}}
{"_id":{"$oid":"621e77837879816924cb759c"},"name":"BELMONT FIRE DEPARTMENT","city":"BELMONT","state":"NH","zip":"03220","county":"BELKNAP","location":{"type":"Point","coordinates":[-71.4776546,43.4445131]}}
{"_id":{"$oid":"621e77837879816924cb759d"},"name":"GILFORD FIRE RESCUE DEPARTMENT","city":"GILFORD","state":"NH","zip":"03249","county":"BELKNAP","location":{"type":"Point","coordinates":[-71.4054442,43.5502006]}}
{"_id":{"$oid":"621e77837879816924cb759e"},"name":"STRAFFORD FIRE AND RESCUE - CROWN POINT STATION","city":"STRAFFORD","state":"NH","zip":"03884","county":"STRAFFORD","location":{"type":"Point","coordinates":[-71.0932579,43.3032962]}}
{"_id":{"$oid":"621e77837879816924cb759f"},"name":"SUGAR HILL FIRE DEPARTMENT","city":"SUGAR HILL","state":"NH","zip":"03586","county":"GRAFTON","location":{"type":"Point","coordinates":[-71.7908483,44.2165658]}}
{"_id":{"$oid":"621e77837879816924cb75a0"},"name":"RANDOLPH FIRE DEPARTMENT","city":"RANDOLPH","state":"NH","zip":"03593","county":"COOS","location":{"type":"Point","coordinates":[-71.2634252,44.3701593]}}
{"_id":{"$oid":"621e77837879816924cb75a1"},"name":"MERRIMACK FIRE DEPARTMENT STATION 1 - HEADQUARTERS","city":"MERRIMACK","state":"NH","zip":"03054","county":"HILLSBOROUGH","location":{"type":"Point","coordinates":[-71.4938103,42.8605848]}}
{"_id":{"$oid":"621e77837879816924cb75a2"},"name":"MERRIMACK FIRE DEPARTMENT STATION 3","city":"MERRIMACK","state":"NH","zip":"03054","county":"HILLSBOROUGH","location":{"type":"Point","coordinates":[-71.4734294,42.8893202]}}
{"_id":{"$oid":"621e77837879816924cb75a3"},"name":"LITCHFIELD NEW HAMPSHIRE FIRE DEPARTMENT","city":"LITCHFIELD","state":"NH","zip":"03052","county":"HILLSBOROUGH","location":{"type":"Point","coordinates":[-71.4808118,42.8424664]}}
{"_id":{"$oid":"621e77837879816924cb75a4"},"name":"RICHMOND VOLUNTEER FIRE DEPARTMENT RESCUE SQUAD","city":"RICHMOND","state":"NH","zip":"03470","county":"CHESHIRE","location":{"type":"Point","coordinates":[-72.2758878,42.7550258]}}
{"_id":{"$oid":"621e77837879816924cb75a5"},"name":"SULLIVAN FIRE AND RESCUE DEPARTMENT","city":"SULLIVAN","state":"NH","zip":"03445","county":"CHESHIRE","location":{"type":"Point","coordinates":[-72.2190933,43.0133042]}}
{"_id":{"$oid":"621e77837879816924cb75a6"},"name":"WINCHESTER FIRE DEPARTMENT AMBULANCE","city":"WINCHESTER","state":"NH","zip":"03470","county":"CHESHIRE","location":{"type":"Point","coordinates":[-72.3835939,42.7721797]}}
{"_id":{"$oid":"621e77837879816924cb75a7"},"name":"ALEXANDRIA VOLUNTEER FIRE DEPARTMENT","city":"ALEXANDRIA","state":"NH","zip":"03222","county":"GRAFTON","location":{"type":"Point","coordinates":[-71.7983146,43.6143337]}}
{"_id":{"$oid":"621e77837879816924cb75a8"},"name":"ASHLAND FIRE AND RESCUE","city":"ASHLAND","state":"NH","zip":"03217","county":"GRAFTON","location":{"type":"Point","coordinates":[-71.6296812,43.6936157]}}
{"_id":{"$oid":"621e77837879816924cb75a9"},"name":"BATH VOLUNTEER FIRE DEPARTMENT","city":"BATH","state":"NH","zip":"03740","county":"GRAFTON","location":{"type":"Point","coordinates":[-71.9643409,44.1640205]}}
{"_id":{"$oid":"621e77837879816924cb75aa"},"name":"BETHLEHEM FIRE DEPARTMENT","city":"BETHLEHEM","state":"NH","zip":"03574","county":"GRAFTON","location":{"type":"Point","coordinates":[-71.6861969,44.280716]}}
{"_id":{"$oid":"621e77837879816924cb75ab"},"name":"CANAAN FIRE DEPARTMENT","city":"CANAAN","state":"NH","zip":"03741","county":"GRAFTON","location":{"type":"Point","coordinates":[-72.0063031,43.648744]}}
{"_id":{"$oid":"621e77837879816924cb75ac"},"name":"CITY OF LEBANON FIRE DEPARTMENT STATION 1 - HEADQUARTERS","city":"LEBANON","state":"NH","zip":"03766","county":"GRAFTON","location":{"type":"Point","coordinates":[-72.2522804,43.6414893]}}
{"_id":{"$oid":"621e77837879816924cb75ad"},"name":"CITY OF LEBANON FIRE DEPARTMENT STATION 2","city":"WEST LEBANON","state":"NH","zip":"03784","county":"GRAFTON","location":{"type":"Point","coordinates":[-72.3104933,43.6469326]}}
{"_id":{"$oid":"621e77837879816924cb75ae"},"name":"JEFFERSON FIRE DEPARTMENT","city":"JEFFERSON","state":"NH","zip":"03583","county":"COOS","location":{"type":"Point","coordinates":[-71.480093,44.4218176]}}
{"_id":{"$oid":"621e77837879816924cb75af"},"name":"ROXBURY FIRE DEPARTMENT","city":"KEENE","state":"NH","zip":"03431","county":"CHESHIRE","location":{"type":"Point","coordinates":[-72.240444,42.9332499]}}
{"_id":{"$oid":"621e77837879816924cb75b0"},"name":"SWANZEY FIRE DEPARTMENT - EAST STATION","city":"SWANZEY","state":"NH","zip":"03446","county":"CHESHIRE","location":{"type":"Point","coordinates":[-72.261552,42.8493149]}}
{"_id":{"$oid":"621e77837879816924cb75b1"},"name":"SWANZEY FIRE DEPARTMENT - WEST STATION","city":"SWANZEY","state":"NH","zip":"03446","county":"CHESHIRE","location":{"type":"Point","coordinates":[-72.3286601,42.8717965]}}
{"_id":{"$oid":"621e77837879816924cb75b2"},"name":"DEPARTMENT OF PUBLIC SAFETY - BRIDGEWATER FIRE DEPARTMENT AND EMERGENCY MEDICAL SERVICES","city":"BRIDGEWATER","state":"NH","zip":"03222","county":"GRAFTON","location":{"type":"Point","coordinates":[-71.7358619,43.6413244]}}
{"_id":{"$oid":"621e77837879816924cb75b3"},"name":"CAMPTON-THORNTON FIRE DEPARTMENT STATION 3","city":"CAMPTON","state":"NH","zip":"03223","county":"GRAFTON","location":{"type":"Point","coordinates":[-71.6523666,43.8098429]}}
{"_id":{"$oid":"621e77837879816924cb75b4"},"name":"LYME VOLUNTEER FIRE DEPARTMENT","city":"LYME","state":"NH","zip":"03768","county":"GRAFTON","location":{"type":"Point","coordinates":[-72.1504879,43.809758]}}
{"_id":{"$oid":"621e77837879816924cb75b5"},"name":"CAMPTON-THORNTON FIRE DEPARTMENT STATION 2","city":"THORNTON","state":"NH","zip":"03223","county":"GRAFTON","location":{"type":"Point","coordinates":[-71.6858756,43.9182983]}}
{"_id":{"$oid":"621e77837879816924cb75b6"},"name":"FRANCONIA FIRE DEPARTMENT","city":"FRANCONIA","state":"NH","zip":"03580","county":"GRAFTON","location":{"type":"Point","coordinates":[-71.7341737,44.2201957]}}
{"_id":{"$oid":"621e77837879816924cb75b7"},"name":"SWANZEY FIRE DEPARTMENT - CENTER STATION","city":"SWANZEY","state":"NH","zip":"03446","county":"CHESHIRE","location":{"type":"Point","coordinates":[-72.2814158,42.87163]}}
{"_id":{"$oid":"621e77837879816924cb75b8"},"name":"TROY FIRE DEPARTMENT","city":"TROY","state":"NH","zip":"03465","county":"CHESHIRE","location":{"type":"Point","coordinates":[-72.1740577,42.8199027]}}
{"_id":{"$oid":"621e77837879816924cb75b9"},"name":"HARRISVILLE FIRE AND RESCUE DEPARTMENT","city":"HARRISVILLE","state":"NH","zip":"03450","county":"CHESHIRE","location":{"type":"Point","coordinates":[-72.1097896,42.9401744]}}
{"_id":{"$oid":"621e77837879816924cb75ba"},"name":"NEW IPSWICH VOLUNTEER FIRE DEPARTMENT","city":"NEW IPSWICH","state":"NH","zip":"03071","county":"HILLSBOROUGH","location":{"type":"Point","coordinates":[-71.8440447,42.756773]}}
{"_id":{"$oid":"621e77837879816924cb75bb"},"name":"MONT VERNON FIRE DEPARTMENT","city":"MONT VERNON","state":"NH","zip":"03057","county":"HILLSBOROUGH","location":{"type":"Point","coordinates":[-71.6741505,42.8932292]}}
{"_id":{"$oid":"621e77837879816924cb75bc"},"name":"CENTER HARBOR FIRE AND RESCUE STATION 2","city":"CENTER HARBOR","state":"NH","zip":"03226","county":"BELKNAP","location":{"type":"Point","coordinates":[-71.5162533,43.7019485]}}
{"_id":{"$oid":"621e77837879816924cb75bd"},"name":"LAKES REGION MUTUAL FIRE AID","city":"LACONIA","state":"NH","zip":"03246","county":"BELKNAP","location":{"type":"Point","coordinates":[-71.4950837,43.5608286]}}
{"_id":{"$oid":"621e77837879816924cb75be"},"name":"LACONIA FIRE DEPARTMENT - CENTRAL STATION","city":"LACONIA","state":"NH","zip":"03246","county":"BELKNAP","location":{"type":"Point","coordinates":[-71.475109,43.5339871]}}
{"_id":{"$oid":"621e77837879816924cb75bf"},"name":"LACONIA FIRE DEPARTMENT - LAKEPORT STATION","city":"LACONIA","state":"NH","zip":"03246","county":"BELKNAP","location":{"type":"Point","coordinates":[-71.462943,43.5480414]}}
{"_id":{"$oid":"621e77837879816924cb75c0"},"name":"LACONIA FIRE DEPARTMENT - WEIRS STATION","city":"LACONIA","state":"NH","zip":"03246","county":"BELKNAP","location":{"type":"Point","coordinates":[-71.4523685,43.6032582]}}
{"_id":{"$oid":"621e77837879816924cb75c1"},"name":"MEREDITH FIRE DEPARTMENT - MAIN STATION","city":"MEREDITH","state":"NH","zip":"03253","county":"BELKNAP","location":{"type":"Point","coordinates":[-71.4977294,43.6545706]}}
{"_id":{"$oid":"621e77837879816924cb75c2"},"name":"NEW HAMPTON FIRE DEPARTMENT","city":"NEW HAMPTON","state":"NH","zip":"03256","county":"BELKNAP","location":{"type":"Point","coordinates":[-71.6587094,43.6074711]}}
{"_id":{"$oid":"621e77837879816924cb75c3"},"name":"SANBORNTON FIRE DEPARTMENT","city":"SANBORNTON","state":"NH","zip":"03269","county":"BELKNAP","location":{"type":"Point","coordinates":[-71.5851828,43.4928333]}}
{"_id":{"$oid":"621e77837879816924cb75c4"},"name":"REDSTONE FIRE DEPARTMENT","city":"CENTER CONWAY","state":"NH","zip":"03813","county":"CARROLL","location":{"type":"Point","coordinates":[-71.1023822,44.0140466]}}
{"_id":{"$oid":"621e77837879816924cb75c5"},"name":"SANBORNTON FIRE DEPARTMENT STATION 2","city":"SANBORNTON","state":"NH","zip":"03269","county":"BELKNAP","location":{"type":"Point","coordinates":[-71.6324805,43.4982211]}}
{"_id":{"$oid":"621e77837879816924cb75c6"},"name":"CONWAY VILLAGE FIRE DEPARTMENT","city":"CONWAY","state":"NH","zip":"03818","county":"CARROLL","location":{"type":"Point","coordinates":[-71.1144094,43.978778]}}
{"_id":{"$oid":"621e77837879816924cb75c7"},"name":"ALTON BAY FIRE AND RESCUE DEPARTMENT","city":"ALTON","state":"NH","zip":"03809","county":"BELKNAP","location":{"type":"Point","coordinates":[-71.2351005,43.4703097]}}
{"_id":{"$oid":"621e77837879816924cb75c8"},"name":"HANCOCK FIRE AND RESCUE","city":"HANCOCK","state":"NH","zip":"03449","county":"HILLSBOROUGH","location":{"type":"Point","coordinates":[-71.9782752,42.9783368]}}
{"_id":{"$oid":"621e77837879816924cb75c9"},"name":"ERROL FIRE DEPARTMENT","city":"ERROL","state":"NH","zip":"03579","county":"COOS","location":{"type":"Point","coordinates":[-71.1350051,44.7804758]}}
{"_id":{"$oid":"621e77837879816924cb75ca"},"name":"MASON FIRE AND RESCUE","city":"MASON","state":"NH","zip":"03048","county":"HILLSBOROUGH","location":{"type":"Point","coordinates":[-71.7607976,42.7344273]}}
{"_id":{"$oid":"621e77837879816924cb75cb"},"name":"EASTON VOLUNTEER FIRE DEPARTMENT","city":"EASTON","state":"NH","zip":"03580","county":"GRAFTON","location":{"type":"Point","coordinates":[-71.7889862,44.148082]}}
{"_id":{"$oid":"621e77837879816924cb75cc"},"name":"EAST CONWAY FIRE DEPARTMENT","city":"CENTER CONWAY","state":"NH","zip":"03813","county":"CARROLL","location":{"type":"Point","coordinates":[-71.0049776,44.0227566]}}
{"_id":{"$oid":"621e77837879816924cb75cd"},"name":"OSSIPEE CORNER FIRE DEPARTMENT","city":"OSSIPEE","state":"NH","zip":"03864","county":"CARROLL","location":{"type":"Point","coordinates":[-71.1148818,43.6900716]}}
{"_id":{"$oid":"621e77837879816924cb75ce"},"name":"SANDWICH FIRE RESCUE DEPARTMENT - CENTRAL STATION","city":"CENTER SANDWICH","state":"NH","zip":"03227","county":"CARROLL","location":{"type":"Point","coordinates":[-71.4390619,43.8073561]}}
{"_id":{"$oid":"621e77837879816924cb75cf"},"name":"FREEDOM FIRE RESCUE DEPARTMENT","city":"FREEDOM","state":"NH","zip":"03836","county":"CARROLL","location":{"type":"Point","coordinates":[-71.0523963,43.803875]}}
{"_id":{"$oid":"621e77837879816924cb75d0"},"name":"MADISON FIRE AND RESCUE DEPARTMENT","city":"MADISON","state":"NH","zip":"03849","county":"CARROLL","location":{"type":"Point","coordinates":[-71.1599473,43.8923806]}}
{"_id":{"$oid":"621e77837879816924cb75d1"},"name":"CHOCORUA VILLAGE STATION","city":"CHOCORUA","state":"NH","zip":"03817","county":"CARROLL","location":{"type":"Point","coordinates":[-71.2208648,43.8777911]}}
{"_id":{"$oid":"621e77837879816924cb75d2"},"name":"HANOVER FIRE DEPARTMENT STATION 2","city":"ETNA","state":"NH","zip":"03750","county":"GRAFTON","location":{"type":"Point","coordinates":[-72.2169359,43.6962238]}}
{"_id":{"$oid":"621e77837879816924cb75d3"},"name":"LANDAFF VOLUNTEER FIRE DEPARTMENT","city":"LANDAFF","state":"NH","zip":"03585","county":"GRAFTON","location":{"type":"Point","coordinates":[-71.8873375,44.1759314]}}
{"_id":{"$oid":"621e77837879816924cb75d4"},"name":"BARTLETT FIRE DEPARTMENT - GLEN STATION","city":"GLEN","state":"NH","zip":"03838","county":"CARROLL","location":{"type":"Point","coordinates":[-71.1827127,44.1100693]}}
{"_id":{"$oid":"621e77837879816924cb75d5"},"name":"GRAFTON VOLUNTEER FIRE DEPARTMENT","city":"GRAFTON","state":"NH","zip":"03240","county":"GRAFTON","location":{"type":"Point","coordinates":[-71.9500625,43.5621687]}}
{"_id":{"$oid":"621e77837879816924cb75d6"},"name":"NORTH CONWAY FIRE DEPARTMENT RESCUE SQUAD","city":"NORTH CONWAY","state":"NH","zip":"03860","county":"CARROLL","location":{"type":"Point","coordinates":[-71.1283402,44.051025]}}
{"_id":{"$oid":"621e77837879816924cb75d7"},"name":"TUFTONBORO FIRE DEPARTMENT","city":"MELVIN VILLAGE","state":"NH","zip":"03850","county":"CARROLL","location":{"type":"Point","coordinates":[-71.3014923,43.6895042]}}
{"_id":{"$oid":"621e77837879816924cb75d8"},"name":"HAVERHILL CORNER FIRE DEPARTMENT","city":"HAVERHILL","state":"NH","zip":"03765","county":"GRAFTON","location":{"type":"Point","coordinates":[-72.0644235,44.0292068]}}
{"_id":{"$oid":"621e77837879816924cb75d9"},"name":"CLAREMONT FIRE DEPARTMENT","city":"CLAREMONT","state":"NH","zip":"03743","county":"SULLIVAN","location":{"type":"Point","coordinates":[-72.3363,43.3722743]}}
{"_id":{"$oid":"621e77837879816924cb75da"},"name":"MARLOW FIRE DEPARTMENT","city":"MARLOW","state":"NH","zip":"03456","county":"CHESHIRE","location":{"type":"Point","coordinates":[-72.1965193,43.1161613]}}
{"_id":{"$oid":"621e77837879816924cb75db"},"name":"STODDARD FIRE AND RESCUE DEPARTMENT","city":"STODDARD","state":"NH","zip":"03464","county":"CHESHIRE","location":{"type":"Point","coordinates":[-72.0931431,43.0774254]}}
{"_id":{"$oid":"621e77837879816924cb75dc"},"name":"WESTMORELAND FIRE DEPARTMENT","city":"WESTMORELAND","state":"NH","zip":"03467","county":"CHESHIRE","location":{"type":"Point","coordinates":[-72.4436305,42.9621532]}}
{"_id":{"$oid":"621e77837879816924cb75dd"},"name":"WALPOLE FIRE DEPARTMENT","city":"WALPOLE","state":"NH","zip":"03608","county":"CHESHIRE","location":{"type":"Point","coordinates":[-72.4288015,43.0942672]}}
{"_id":{"$oid":"621e77837879816924cb75de"},"name":"DEERING FIRE AND RESCUE - MCCALLISTER STATION","city":"HILLSBOROUGH","state":"NH","zip":"03244","county":"HILLSBOROUGH","location":{"type":"Point","coordinates":[-71.9065605,43.072561]}}
{"_id":{"$oid":"621e77837879816924cb75df"},"name":"GOFFSTOWN FIRE DEPARTMENT STATION 19","city":"MANCHESTER","state":"NH","zip":"03102","county":"HILLSBOROUGH","location":{"type":"Point","coordinates":[-71.5086056,42.9947287]}}
{"_id":{"$oid":"621e77837879816924cb75e0"},"name":"GOFFSTOWN FIRE DEPARTMENT STATION 18 - HEADQUARTERS","city":"GOFFSTOWN","state":"NH","zip":"03045","county":"HILLSBOROUGH","location":{"type":"Point","coordinates":[-71.6022464,43.0201821]}}
{"_id":{"$oid":"621e77837879816924cb75e1"},"name":"HUDSON NEW HAMPSHIRE FIRE DEPARTMENT STATION 1","city":"HUDSON","state":"NH","zip":"03051","county":"HILLSBOROUGH","location":{"type":"Point","coordinates":[-71.3788592,42.798761]}}
{"_id":{"$oid":"621e77837879816924cb75e2"},"name":"HUDSON NEW HAMPSHIRE FIRE DEPARTMENT CENTRAL STATION - HEADQUARTERS","city":"HUDSON","state":"NH","zip":"03051","county":"HILLSBOROUGH","location":{"type":"Point","coordinates":[-71.4389453,42.764772]}}
{"_id":{"$oid":"621e77837879816924cb75e3"},"name":"HUDSON NEW HAMPSHIRE FIRE DEPARTMENT STATION 4","city":"HUDSON","state":"NH","zip":"03051","county":"HILLSBOROUGH","location":{"type":"Point","coordinates":[-71.4053762,42.7364157]}}
{"_id":{"$oid":"621e77837879816924cb75e4"},"name":"PETERBOROUGH FIRE AND RESCUE","city":"PETERBOROUGH","state":"NH","zip":"03458","county":"HILLSBOROUGH","location":{"type":"Point","coordinates":[-71.9497369,42.8789326]}}
{"_id":{"$oid":"621e77837879816924cb75e5"},"name":"CITY OF NASHUA FIRE AND RESCUE STATION 6","city":"NASHUA","state":"NH","zip":"03062","county":"HILLSBOROUGH","location":{"type":"Point","coordinates":[-71.5003962,42.7347554]}}
{"_id":{"$oid":"621e77837879816924cb75e6"},"name":"CITY OF NASHUA FIRE AND RESCUE STATION 5","city":"NASHUA","state":"NH","zip":"03063","county":"HILLSBOROUGH","location":{"type":"Point","coordinates":[-71.5088845,42.7753638]}}
{"_id":{"$oid":"621e77837879816924cb75e7"},"name":"CITY OF NASHUA FIRE AND RESCUE STATION 3","city":"NASHUA","state":"NH","zip":"03062","county":"HILLSBOROUGH","location":{"type":"Point","coordinates":[-71.4614322,42.7084549]}}
{"_id":{"$oid":"621e77837879816924cb75e8"},"name":"CITY OF NASHUA FIRE AND RESCUE STATION 2","city":"NASHUA","state":"NH","zip":"03060","county":"HILLSBOROUGH","location":{"type":"Point","coordinates":[-71.4752341,42.7482314]}}
{"_id":{"$oid":"621e77837879816924cb75e9"},"name":"CITY OF NASHUA FIRE AND RESCUE STATION 1","city":"NASHUA","state":"NH","zip":"03064","county":"HILLSBOROUGH","location":{"type":"Point","coordinates":[-71.4698788,42.7663275]}}
{"_id":{"$oid":"621e77837879816924cb75ea"},"name":"CITY OF NASHUA FIRE AND RESCUE STATION 4 - HEADQUARTERS","city":"NASHUA","state":"NH","zip":"03060","county":"HILLSBOROUGH","location":{"type":"Point","coordinates":[-71.4553615,42.75986]}}
{"_id":{"$oid":"621e77837879816924cb75eb"},"name":"DEERING FIRE AND RESCUE - DONOVAN STATION","city":"DEERING","state":"NH","zip":"03244","county":"HILLSBOROUGH","location":{"type":"Point","coordinates":[-71.8376079,43.0682281]}}
{"_id":{"$oid":"621e77837879816924cb75ec"},"name":"CONCORD FIRE DEPARTMENT STATION 4 - BROADWAY FIRE STATION","city":"CONCORD","state":"NH","zip":"03301","county":"MERRIMACK","location":{"type":"Point","coordinates":[-71.538318,43.1935592]}}
{"_id":{"$oid":"621e77837879816924cb75ed"},"name":"CONCORD FIRE DEPARTMENT STATION 7 - HEIGHTS FIRE STATION","city":"CONCORD","state":"NH","zip":"03301","county":"MERRIMACK","location":{"type":"Point","coordinates":[-71.5112268,43.2146286]}}
{"_id":{"$oid":"621e77837879816924cb75ee"},"name":"CONCORD FIRE DEPARTMENT STATION 1 - CENTRAL FIRE STATION","city":"CONCORD","state":"NH","zip":"03301","county":"MERRIMACK","location":{"type":"Point","coordinates":[-71.5461954,43.2176386]}}
{"_id":{"$oid":"621e77837879816924cb75ef"},"name":"GOFFSTOWN FIRE DEPARTMENT STATION 17","city":"GOFFSTOWN","state":"NH","zip":"03045","county":"HILLSBOROUGH","location":{"type":"Point","coordinates":[-71.5245194,43.0404052]}}
{"_id":{"$oid":"621e77837879816924cb75f0"},"name":"DERRY FIRE DEPARTMENT STATION 4 - HAMPSTEAD ROAD STATION","city":"DERRY","state":"NH","zip":"03038","county":"ROCKINGHAM","location":{"type":"Point","coordinates":[-71.2870949,42.895055]}}
{"_id":{"$oid":"621e77837879816924cb75f1"},"name":"DERRY FIRE DEPARTMENT CENTRAL STATION - HEADQUARTERS","city":"DERRY","state":"NH","zip":"03038","county":"ROCKINGHAM","location":{"type":"Point","coordinates":[-71.3126744,42.8914235]}}
{"_id":{"$oid":"621e77837879816924cb75f2"},"name":"DERRY FIRE DEPARTMENT STATION 3 - ENGLISH RANGE ROAD STATION","city":"DERRY","state":"NH","zip":"03038","county":"ROCKINGHAM","location":{"type":"Point","coordinates":[-71.331679,42.9190072]}}
{"_id":{"$oid":"621e77837879816924cb75f3"},"name":"DERRY FIRE DEPARTMENT STATION 2 - ISLAND POND ROAD STATION","city":"DERRY","state":"NH","zip":"03038","county":"ROCKINGHAM","location":{"type":"Point","coordinates":[-71.2340997,42.8799748]}}
{"_id":{"$oid":"621e77837879816924cb75f4"},"name":"KENSINGTON FIRE DEPARTMENT AND RESCUE","city":"KENSINGTON","state":"NH","zip":"03833","county":"ROCKINGHAM","location":{"type":"Point","coordinates":[-70.9434857,42.9285811]}}
{"_id":{"$oid":"621e77837879816924cb75f5"},"name":"DALTON VOLUNTEER FIRE DEPARTMENT","city":"DALTON","state":"NH","zip":"03598","county":"COOS","location":{"type":"Point","coordinates":[-71.6943331,44.4161209]}}
{"_id":{"$oid":"621e77837879816924cb75f6"},"name":"HAMPSTEAD FIRE RESCUE EAST HAMPSTEAD STATION","city":"EAST HAMPSTEAD","state":"NH","zip":"03826","county":"ROCKINGHAM","location":{"type":"Point","coordinates":[-71.1370856,42.8900171]}}
{"_id":{"$oid":"621e77837879816924cb75f7"},"name":"WINDHAM FIRE DEPARTMENT","city":"WINDHAM","state":"NH","zip":"03087","county":"ROCKINGHAM","location":{"type":"Point","coordinates":[-71.2981598,42.8038384]}}
{"_id":{"$oid":"621e77837879816924cb75f8"},"name":"NEWFIELDS FIRE AND RESCUE","city":"NEWFIELDS","state":"NH","zip":"03856","county":"ROCKINGHAM","location":{"type":"Point","coordinates":[-70.9441101,43.0349403]}}
{"_id":{"$oid":"621e77837879816924cb75f9"},"name":"DEERFIELD FIRE DEPARTMENT / DEERFIELD RESCUE SQUAD","city":"DEERFIELD","state":"NH","zip":"03037","county":"ROCKINGHAM","location":{"type":"Point","coordinates":[-71.2432309,43.1331933]}}
{"_id":{"$oid":"621e77837879816924cb75fa"},"name":"WHITEFIELD FIRE DEPARTMENT","city":"WHITEFIELD","state":"NH","zip":"03598","county":"COOS","location":{"type":"Point","coordinates":[-71.6148452,44.3707269]}}
{"_id":{"$oid":"621e77837879816924cb75fb"},"name":"CITY OF KEENE FIRE DEPARTMENT STATION 2 -WEST","city":"KEENE","state":"NH","zip":"03431","county":"CHESHIRE","location":{"type":"Point","coordinates":[-72.3252657,42.9466446]}}
{"_id":{"$oid":"621e77837879816924cb75fc"},"name":"STRATFORD HOLLOW FIRE DEPARTMENT","city":"NORTH STRATFORD","state":"NH","zip":"03590","county":"COOS","location":{"type":"Point","coordinates":[-71.5563026,44.6545612]}}
{"_id":{"$oid":"621e77837879816924cb75fd"},"name":"COLEBROOK FIRE DEPARTMENT","city":"COLEBROOK","state":"NH","zip":"03576","county":"COOS","location":{"type":"Point","coordinates":[-71.4949842,44.8937336]}}
{"_id":{"$oid":"621e77837879816924cb75fe"},"name":"GROVETON FIRE DEPARTMENT","city":"GROVETON","state":"NH","zip":"03582","county":"COOS","location":{"type":"Point","coordinates":[-71.5130609,44.598359]}}
{"_id":{"$oid":"621e77837879816924cb75ff"},"name":"GREENLAND VOLUNTEER FIRE DEPARTMENT","city":"GREENLAND","state":"NH","zip":"03840","county":"ROCKINGHAM","location":{"type":"Point","coordinates":[-70.8381796,43.0359939]}}
{"_id":{"$oid":"621e77837879816924cb7600"},"name":"TWIN MOUNTAIN FIRE DEPARTMENT","city":"TWIN MOUNTAIN","state":"NH","zip":"03595","county":"COOS","location":{"type":"Point","coordinates":[-71.5401193,44.274489]}}
{"_id":{"$oid":"621e77837879816924cb7601"},"name":"STARK FIRE DEPARTMENT","city":"STARK","state":"NH","zip":"03582","county":"COOS","location":{"type":"Point","coordinates":[-71.4082821,44.6001728]}}
{"_id":{"$oid":"621e77837879816924cb7602"},"name":"MANCHESTER FIRE DEPARTMENT STATION 10","city":"MANCHESTER","state":"NH","zip":"03104","county":"HILLSBOROUGH","location":{"type":"Point","coordinates":[-71.4356719,42.9947779]}}
{"_id":{"$oid":"621e77837879816924cb7603"},"name":"TEMPLE VOLUNTEER FIRE DEPARTMENT","city":"TEMPLE","state":"NH","zip":"03084","county":"HILLSBOROUGH","location":{"type":"Point","coordinates":[-71.8501819,42.8144378]}}
{"_id":{"$oid":"621e77837879816924cb7604"},"name":"STRAFFORD FIRE AND RESCUE - CENTER STATION","city":"STRAFFORD","state":"NH","zip":"03884","county":"STRAFFORD","location":{"type":"Point","coordinates":[-71.1236924,43.2694786]}}
{"_id":{"$oid":"621e77837879816924cb7605"},"name":"SOMERSWORTH FIRE DEPARTMENT","city":"SOMERSWORTH","state":"NH","zip":"03878","county":"STRAFFORD","location":{"type":"Point","coordinates":[-70.8795004,43.2489763]}}
{"_id":{"$oid":"621e77837879816924cb7606"},"name":"MILTON FIRE RESCUE STATION 1","city":"MILTON","state":"NH","zip":"03851","county":"STRAFFORD","location":{"type":"Point","coordinates":[-70.9880568,43.4078351]}}
{"_id":{"$oid":"621e77837879816924cb7607"},"name":"MIDDLETON FIRE AND RESCUE","city":"MIDDLETON","state":"NH","zip":"03887","county":"STRAFFORD","location":{"type":"Point","coordinates":[-71.0708643,43.4787101]}}
{"_id":{"$oid":"621e77837879816924cb7608"},"name":"UNITY VOLUNTEER FIRE DEPARTMENT","city":"NEWPORT","state":"NH","zip":"03773","county":"SULLIVAN","location":{"type":"Point","coordinates":[-72.2589343,43.2926207]}}
{"_id":{"$oid":"621e77837879816924cb7609"},"name":"CROYDON VOLUNTEER FIRE AND RESCUE","city":"CROYDON","state":"NH","zip":"03773","county":"SULLIVAN","location":{"type":"Point","coordinates":[-72.16159,43.4506717]}}
{"_id":{"$oid":"621e77837879816924cb760a"},"name":"LANGDON FIRE AND RESCUE","city":"LANGDON","state":"NH","zip":"03602","county":"SULLIVAN","location":{"type":"Point","coordinates":[-72.379713,43.1623591]}}
{"_id":{"$oid":"621e77837879816924cb760b"},"name":"SUNAPEE FIRE DEPARTMENT AND RESCUE STATION 1 - HEADQUARTERS","city":"SUNAPEE","state":"NH","zip":"03782","county":"SULLIVAN","location":{"type":"Point","coordinates":[-72.0882271,43.3906143]}}
{"_id":{"$oid":"621e77837879816924cb760c"},"name":"CORNISH FIRE DEPARTMENT STATION 2","city":"CORNISH","state":"NH","zip":"03745","county":"SULLIVAN","location":{"type":"Point","coordinates":[-72.2770979,43.499507]}}
{"_id":{"$oid":"621e77837879816924cb760d"},"name":"STRAFFORD FIRE AND RESCUE - BOW LAKE STATION","city":"STRAFFORD","state":"NH","zip":"03884","county":"STRAFFORD","location":{"type":"Point","coordinates":[-71.1474713,43.2414876]}}
{"_id":{"$oid":"621e77837879816924cb760e"},"name":"CORNISH FIRE DEPARTMENT STATION 1","city":"CORNISH","state":"NH","zip":"03745","county":"SULLIVAN","location":{"type":"Point","coordinates":[-72.3314511,43.4632648]}}
{"_id":{"$oid":"621e77837879816924cb760f"},"name":"NEWPORT FIRE AND EMERGENCY MEDICAL SERVICES","city":"NEWPORT","state":"NH","zip":"03773","county":"SULLIVAN","location":{"type":"Point","coordinates":[-72.1724709,43.3649645]}}
{"_id":{"$oid":"621e77837879816924cb7610"},"name":"SUNAPEE FIRE DEPARTMENT AND RESCUE STATION 2 - GEORGES MILLS STATION","city":"SUNAPEE","state":"NH","zip":"03782","county":"SULLIVAN","location":{"type":"Point","coordinates":[-72.0707885,43.42927]}}
{"_id":{"$oid":"621e77837879816924cb7611"},"name":"NEW DURHAM FIRE DEPARTMENT","city":"NEW DURHAM","state":"NH","zip":"03855","county":"STRAFFORD","location":{"type":"Point","coordinates":[-71.1645522,43.4350014]}}
{"_id":{"$oid":"621e77837879816924cb7612"},"name":"ROLLINSFORD FIRE DEPARTMENT","city":"ROLLINSFORD","state":"NH","zip":"03869","county":"STRAFFORD","location":{"type":"Point","coordinates":[-70.8370563,43.229988]}}
{"_id":{"$oid":"621e77837879816924cb7613"},"name":"ROCHESTER FIRE DEPARTMENT","city":"ROCHESTER","state":"NH","zip":"03867","county":"STRAFFORD","location":{"type":"Point","coordinates":[-70.9759142,43.3057532]}}
{"_id":{"$oid":"621e77837879816924cb7614"},"name":"GRANTHAM FIRE DEPARTMENT","city":"GRANTHAM","state":"NH","zip":"03753","county":"SULLIVAN","location":{"type":"Point","coordinates":[-72.1353342,43.4927421]}}
{"_id":{"$oid":"621e77837879816924cb7615"},"name":"GOSHEN FIRE DEPARTMENT","city":"GOSHEN","state":"NH","zip":"03752","county":"SULLIVAN","location":{"type":"Point","coordinates":[-72.1496353,43.3018613]}}
{"_id":{"$oid":"621e77837879816924cb7616"},"name":"LEMPSTER FIRE DEPARTMENT","city":"LEMPSTER","state":"NH","zip":"03605","county":"SULLIVAN","location":{"type":"Point","coordinates":[-72.2014707,43.236587]}}
{"_id":{"$oid":"621e77837879816924cb7617"},"name":"SPRINGFIELD VOLUNTEER FIRE AND RESCUE","city":"SPRINGFIELD","state":"NH","zip":"03284","county":"SULLIVAN","location":{"type":"Point","coordinates":[-72.049655,43.4936549]}}
{"_id":{"$oid":"621e77837879816924cb7618"},"name":"WASHINGTON FIRE DEPARTMENT AND RESCUE SQUAD","city":"WASHINGTON","state":"NH","zip":"03280","county":"SULLIVAN","location":{"type":"Point","coordinates":[-72.1012378,43.178535]}}
{"_id":{"$oid":"621e77837879816924cb7619"},"name":"MILTON FIRE RESCUE STATION 2","city":"MILTON MILLS","state":"NH","zip":"03852","county":"STRAFFORD","location":{"type":"Point","coordinates":[-70.9597538,43.5015822]}}
{"_id":{"$oid":"621e77837879816924cb761a"},"name":"DEERING FIRE AND RESCUE - MURDOUGH STATION","city":"DEERING","state":"NH","zip":"03244","county":"HILLSBOROUGH","location":{"type":"Point","coordinates":[-71.8772513,43.0887891]}}
{"_id":{"$oid":"621e77837879816924cb761b"},"name":"PLAINFIELD FIRE DEPARTMENT","city":"PLAINFIELD","state":"NH","zip":"03781","county":"SULLIVAN","location":{"type":"Point","coordinates":[-72.3665263,43.526558]}}
{"_id":{"$oid":"621e77837879816924cb761c"},"name":"CENTER CONWAY FIRE AND RESCUE","city":"CENTER CONWAY","state":"NH","zip":"03813","county":"CARROLL","location":{"type":"Point","coordinates":[-71.0623847,43.9952048]}}
{"_id":{"$oid":"621e77837879816924cb761d"},"name":"WEST ALTON FIRE AND RESCUE DEPARTMENT","city":"ALTON","state":"NH","zip":"03810","county":"BELKNAP","location":{"type":"Point","coordinates":[-71.3004566,43.5409028]}}
{"_id":{"$oid":"621e77837879816924cb761e"},"name":"SANDOWN FIRE AND RESCUE - SUBSTATION","city":"SANDOWN","state":"NH","zip":"03873","county":"ROCKINGHAM","location":{"type":"Point","coordinates":[-71.1475133,42.9000951]}}
{"_id":{"$oid":"621e77837879816924cb761f"},"name":"NELSON FIRE AND RESCUE - SUBSTATION","city":"NELSON","state":"NH","zip":"03457","county":"CHESHIRE","location":{"type":"Point","coordinates":[-72.1461408,43.014359]}}
{"_id":{"$oid":"621e77837879816924cb7620"},"name":"KINGSTON FIRE DEPARTMENT - SUBSTATION","city":"KINGSTON","state":"NH","zip":"03848","county":"ROCKINGHAM","location":{"type":"Point","coordinates":[-71.082923,42.8818158]}}
{"_id":{"$oid":"621e77837879816924cb7621"},"name":"FITZWILLIAM FIRE DEPARTMENT - SUBSTATION","city":"FITZWILLIAM","state":"NH","zip":"03447","county":"CHESHIRE","location":{"type":"Point","coordinates":[-72.145489,42.7793137]}}
{"_id":{"$oid":"621e77837879816924cb7622"},"name":"ANTRIM FIRE DEPARTMENT STATION 1 - HEADQUARTERS AND EMERGENCY MEDICAL SERVICES","city":"ANTRIM","state":"NH","zip":"03440","county":"HILLSBOROUGH","location":{"type":"Point","coordinates":[-71.9530407,43.0377463]}}
{"_id":{"$oid":"621e77837879816924cb7623"},"name":"BARNSTEAD FIRE AND RESCUE","city":"BARNSTEAD","state":"NH","zip":"03218","county":"BELKNAP","location":{"type":"Point","coordinates":[-71.2912845,43.3353013]}}
{"_id":{"$oid":"621e77837879816924cb7624"},"name":"WOLFEBORO FIRE AND RESCUE DEPARTMENT","city":"WOLFEBORO","state":"NH","zip":"03894","county":"CARROLL","location":{"type":"Point","coordinates":[-71.2013375,43.5800868]}}
{"_id":{"$oid":"621e77837879816924cb7625"},"name":"FITZWILLIAM FIRE DEPARTMENT STATION 1","city":"FITZWILLIAM","state":"NH","zip":"03447","county":"CHESHIRE","location":{"type":"Point","coordinates":[-72.1505112,42.7647494]}}
{"_id":{"$oid":"621e77837879816924cb7626"},"name":"GILMANTON FIRE DEPARTMENT STATION 2","city":"GILMANTON","state":"NH","zip":"03237","county":"BELKNAP","location":{"type":"Point","coordinates":[-71.4150578,43.4222173]}}
{"_id":{"$oid":"621e77837879816924cb7627"},"name":"FREMONT FIRE AND RESCUE DEPARTMENT","city":"FREMONT","state":"NH","zip":"03044","county":"ROCKINGHAM","location":{"type":"Point","coordinates":[-71.1320039,42.9849019]}}
{"_id":{"$oid":"621e77837879816924cb7628"},"name":"HOLDERNESS FIRE DEPARTMENT","city":"HOLDERNESS","state":"NH","zip":"03245","county":"GRAFTON","location":{"type":"Point","coordinates":[-71.5930847,43.7310867]}}
{"_id":{"$oid":"621e77837879816924cb7629"},"name":"LANCASTER FIRE DEPARTMENT AND EMERGENCY MEDICAL SERVICES","city":"LANCASTER","state":"NH","zip":"03584","county":"COOS","location":{"type":"Point","coordinates":[-71.568753,44.4874457]}}
{"_id":{"$oid":"621e77837879816924cb762a"},"name":"EAST KINGSTON FIRE DEPARTMENT","city":"EAST KINGSTON","state":"NH","zip":"03827","county":"ROCKINGHAM","location":{"type":"Point","coordinates":[-71.0075348,42.922805]}}
{"_id":{"$oid":"621e77837879816924cb762b"},"name":"CHESTER FIRE DEPARTMENT","city":"CHESTER","state":"NH","zip":"03036","county":"ROCKINGHAM","location":{"type":"Point","coordinates":[-71.2539073,42.960512]}}
{"_id":{"$oid":"621e77837879816924cb762c"},"name":"EMERGENCY MEDICAL SERVICES - NORTH / PITTSBURG FIRE DEPARTMENT","city":"PITTSBURG","state":"NH","zip":"03592","county":"COOS","location":{"type":"Point","coordinates":[-71.3809279,45.0512324]}}
{"_id":{"$oid":"621e77837879816924cb762d"},"name":"TILTON-NORTHFIELD FIRE AND RESCUE","city":"NORTHFIELD","state":"NH","zip":"03276","county":"MERRIMACK","location":{"type":"Point","coordinates":[-71.5914115,43.4329354]}}
{"_id":{"$oid":"621e77837879816924cb762e"},"name":"TUFTONBORO FIRE AND RESCUE - MAIN STATION","city":"MIRROR LAKE","state":"NH","zip":"03853","county":"CARROLL","location":{"type":"Point","coordinates":[-71.2773805,43.6214085]}}
{"_id":{"$oid":"621e77837879816924cb762f"},"name":"NEW BOSTON FIRE DEPARTMENT","city":"NEW BOSTON","state":"NH","zip":"03070","county":"HILLSBOROUGH","location":{"type":"Point","coordinates":[-71.6905454,42.9757402]}}
{"_id":{"$oid":"621e77837879816924cb7630"},"name":"BRISTOL FIRE DEPARTMENT","city":"BRISTOL","state":"NH","zip":"03222","county":"GRAFTON","location":{"type":"Point","coordinates":[-71.741881,43.5919284]}}
{"_id":{"$oid":"621e77837879816924cb7631"},"name":"RINDGE FIRE DEPARTMENT","city":"RINDGE","state":"NH","zip":"03461","county":"CHESHIRE","location":{"type":"Point","coordinates":[-72.0112686,42.7514062]}}
